{
   "type": "FeatureCollection",
   "features": [
  {
    "type": "Feature",
    "geometry": {
       "type": "Point",
       "coordinates":  [ 139.6712021,35.73946558 ]
    },
    "properties": {
    "名称":"栄町児童館学童クラブ",
    "所在地":"練馬区栄町40-7",
    "電話":"03-3994-3287"
    }
  },
  {
    "type": "Feature",
    "geometry": {
       "type": "Point",
       "coordinates":  [ 139.6423311,35.73170206 ]
    },
    "properties": {
    "名称":"中村児童館学童クラブ",
    "所在地":"練馬区中村2-25-3",
    "電話":"03-3998-4890"
    }
  },
  {
    "type": "Feature",
    "geometry": {
       "type": "Point",
       "coordinates":  [ 139.6460816,35.75702582 ]
    },
    "properties": {
    "名称":"春日町児童館学童クラブ",
    "所在地":"練馬区春日町2-28-3",
    "電話":"03-3998-8799"
    }
  },
  {
    "type": "Feature",
    "geometry": {
       "type": "Point",
       "coordinates":  [ 139.6678758,35.76398688 ]
    },
    "properties": {
    "名称":"北町児童館学童クラブ",
    "所在地":"練馬区北町1-19-17",
    "電話":"03-3931-5481"
    }
  },
  {
    "type": "Feature",
    "geometry": {
       "type": "Point",
       "coordinates":  [ 139.61345,35.76351239 ]
    },
    "properties": {
    "名称":"土支田児童館学童クラブ",
    "所在地":"練馬区土支田2-32-8",
    "電話":"03-3925-4784"
    }
  },
  {
    "type": "Feature",
    "geometry": {
       "type": "Point",
       "coordinates":  [ 139.6113416,35.73790549 ]
    },
    "properties": {
    "名称":"南田中児童館学童クラブ",
    "所在地":"練馬区南田中5-15-25",
    "電話":"03-3995-5534"
    }
  },
  {
    "type": "Feature",
    "geometry": {
       "type": "Point",
       "coordinates":  [ 139.6061627,35.75718826 ]
    },
    "properties": {
    "名称":"三原台児童館学童クラブ",
    "所在地":"練馬区三原台2-11-29",
    "電話":"03-3924-8796"
    }
  },
  {
    "type": "Feature",
    "geometry": {
       "type": "Point",
       "coordinates":  [ 139.5979856,35.74466231 ]
    },
    "properties": {
    "名称":"石神井児童館学童クラブ",
    "所在地":"練馬区石神井町7-28-21",
    "電話":"03-3996-3800"
    }
  },
  {
    "type": "Feature",
    "geometry": {
       "type": "Point",
       "coordinates":  [ 139.5896461,35.73557649 ]
    },
    "properties": {
    "名称":"石神井台児童館学童クラブ",
    "所在地":"練馬区石神井台2-18-13",
    "電話":"03-3995-8267"
    }
  },
  {
    "type": "Feature",
    "geometry": {
       "type": "Point",
       "coordinates":  [ 139.5922158,35.72564649 ]
    },
    "properties": {
    "名称":"上石神井児童館学童クラブ",
    "所在地":"練馬区上石神井1-5-2",
    "電話":"03-3929-0999"
    }
  },
  {
    "type": "Feature",
    "geometry": {
       "type": "Point",
       "coordinates":  [ 139.5722789,35.72277353 ]
    },
    "properties": {
    "名称":"関町児童館学童クラブ",
    "所在地":"練馬区関町南4-15-7-102",
    "電話":"03-3920-1601"
    }
  },
  {
    "type": "Feature",
    "geometry": {
       "type": "Point",
       "coordinates":  [ 139.5772234,35.74245826 ]
    },
    "properties": {
    "名称":"東大泉児童館学童クラブ",
    "所在地":"練馬区東大泉7-20-1",
    "電話":"03-3921-8100"
    }
  },
  {
    "type": "Feature",
    "geometry": {
       "type": "Point",
       "coordinates":  [ 139.6500114,35.7402444 ]
    },
    "properties": {
    "名称":"厚生文化会館学童クラブ",
    "所在地":"練馬区練馬4-2-3",
    "電話":"03-3991-3080"
    }
  },
  {
    "type": "Feature",
    "geometry": {
       "type": "Point",
       "coordinates":  [ 139.6613705,35.73256012 ]
    },
    "properties": {
    "名称":"豊玉北地区区民館学童クラブ",
    "所在地":"練馬区豊玉北3-7-9",
    "電話":"03-3948-3061"
    }
  },
  {
    "type": "Feature",
    "geometry": {
       "type": "Point",
       "coordinates":  [ 139.6631528,35.74579933 ]
    },
    "properties": {
    "名称":"桜台地区区民館学童クラブ",
    "所在地":"練馬区桜台3-39-17",
    "電話":"03-3993-5461"
    }
  },
  {
    "type": "Feature",
    "geometry": {
       "type": "Point",
       "coordinates":  [ 139.6353891,35.73802885 ]
    },
    "properties": {
    "名称":"貫井地区区民館学童クラブ",
    "所在地":"練馬区貫井1-9-1",
    "電話":"03-3926-7218"
    }
  },
  {
    "type": "Feature",
    "geometry": {
       "type": "Point",
       "coordinates":  [ 139.6671208,35.75698778 ]
    },
    "properties": {
    "名称":"氷川台地区区民館学童クラブ",
    "所在地":"練馬区氷川台2-16-14",
    "電話":"03-3932-2065"
    }
  },
  {
    "type": "Feature",
    "geometry": {
       "type": "Point",
       "coordinates":  [ 139.6236108,35.75109251 ]
    },
    "properties": {
    "名称":"高松地区区民館学童クラブ",
    "所在地":"練馬区高松3-24-27",
    "電話":"03-3999-7911"
    }
  },
  {
    "type": "Feature",
    "geometry": {
       "type": "Point",
       "coordinates":  [ 139.6554647,35.76106229 ]
    },
    "properties": {
    "名称":"北町第二地区区民館学童クラブ",
    "所在地":"練馬区北町6-24-101",
    "電話":"03-3931-1276"
    }
  },
  {
    "type": "Feature",
    "geometry": {
       "type": "Point",
       "coordinates":  [ 139.6373984,35.76209764 ]
    },
    "properties": {
    "名称":"田柄地区区民館学童クラブ",
    "所在地":"練馬区田柄3-28-13",
    "電話":"03-3926-4933"
    }
  },
  {
    "type": "Feature",
    "geometry": {
       "type": "Point",
       "coordinates":  [ 139.6034639,35.73363456 ]
    },
    "properties": {
    "名称":"下石神井地区区民館学童クラブ",
    "所在地":"練馬区下石神井6-8-15",
    "電話":"03-3904-5061"
    }
  },
  {
    "type": "Feature",
    "geometry": {
       "type": "Point",
       "coordinates":  [ 139.5772402,35.72980382 ]
    },
    "properties": {
    "名称":"関町北地区区民館学童クラブ",
    "所在地":"練馬区関町北4-12-21",
    "電話":"03-3594-2604"
    }
  },
  {
    "type": "Feature",
    "geometry": {
       "type": "Point",
       "coordinates":  [ 139.5877582,35.75599772 ]
    },
    "properties": {
    "名称":"東大泉地区区民館学童クラブ",
    "所在地":"練馬区東大泉3-53-1",
    "電話":"03-3921-8299"
    }
  },
  {
    "type": "Feature",
    "geometry": {
       "type": "Point",
       "coordinates":  [ 139.5723496,35.76004302 ]
    },
    "properties": {
    "名称":"西大泉地区区民館学童クラブ",
    "所在地":"練馬区西大泉5-3-32",
    "電話":"03-3921-6494"
    }
  },
  {
    "type": "Feature",
    "geometry": {
       "type": "Point",
       "coordinates":  [ 139.6041915,35.76473384 ]
    },
    "properties": {
    "名称":"北大泉地区区民館学童クラブ",
    "所在地":"練馬区大泉町2-41-26",
    "電話":"03-3978-0324"
    }
  },
  {
    "type": "Feature",
    "geometry": {
       "type": "Point",
       "coordinates":  [ 139.5926951,35.77277871 ]
    },
    "properties": {
    "名称":"大泉学園地区区民館学童クラブ",
    "所在地":"練馬区大泉学園町8-9-5",
    "電話":"03-3922-4101"
    }
  },
  {
    "type": "Feature",
    "geometry": {
       "type": "Point",
       "coordinates":  [ 139.6421654,35.73170504 ]
    },
    "properties": {
    "名称":"中村児童館第二学童クラブ",
    "所在地":"練馬区中村2-25-3",
    "電話":"03-3998-4890"
    }
  },
  {
    "type": "Feature",
    "geometry": {
       "type": "Point",
       "coordinates":  [ 139.6613323,35.76007536 ]
    },
    "properties": {
    "名称":"平和台児童館学童クラブ",
    "所在地":"練馬区平和台2-18-14",
    "電話":"03-3550-8058"
    }
  },
  {
    "type": "Feature",
    "geometry": {
       "type": "Point",
       "coordinates":  [ 139.5774008,35.74245954 ]
    },
    "properties": {
    "名称":"東大泉児童館第二学童クラブ",
    "所在地":"練馬区東大泉7-20-1",
    "電話":"03-3921-8100"
    }
  }
]
}