{
   "type": "FeatureCollection",
   "features": [
  {
    "type": "Feature",
    "geometry": {
       "type": "Point",
       "coordinates":  [ 139.6768029,35.73669464 ]
    },
    "properties": {
    "名称":"旭丘小学校",
    "所在地":"練馬区旭丘2-21-1",
    "電話":"03-3957-2151"
    }
  },
  {
    "type": "Feature",
    "geometry": {
       "type": "Point",
       "coordinates":  [ 139.6798355,35.7440981 ]
    },
    "properties": {
    "名称":"小竹小学校",
    "所在地":"練馬区小竹町2-6-7",
    "電話":"03-3956-8391"
    }
  },
  {
    "type": "Feature",
    "geometry": {
       "type": "Point",
       "coordinates":  [ 139.6712784,35.74781734 ]
    },
    "properties": {
    "名称":"開進第四小学校",
    "所在地":"練馬区羽沢2-33-1",
    "電話":"03-3993-6153"
    }
  },
  {
    "type": "Feature",
    "geometry": {
       "type": "Point",
       "coordinates":  [ 139.6616903,35.73742126 ]
    },
    "properties": {
    "名称":"豊玉第二小学校",
    "所在地":"練馬区豊玉上2-16-1",
    "電話":"03-3993-0421"
    }
  },
  {
    "type": "Feature",
    "geometry": {
       "type": "Point",
       "coordinates":  [ 139.6522172,35.73294284 ]
    },
    "properties": {
    "名称":"豊玉小学校",
    "所在地":"練馬区豊玉中4-2-20",
    "電話":"03-3993-4286"
    }
  },
  {
    "type": "Feature",
    "geometry": {
       "type": "Point",
       "coordinates":  [ 139.6560252,35.72767887 ]
    },
    "properties": {
    "名称":"豊玉南小学校",
    "所在地":"練馬区豊玉南2-14-1",
    "電話":"03-3993-6425"
    }
  },
  {
    "type": "Feature",
    "geometry": {
       "type": "Point",
       "coordinates":  [ 139.6679676,35.73273377 ]
    },
    "properties": {
    "名称":"豊玉東小学校",
    "所在地":"練馬区豊玉北1-16-1",
    "電話":"03-3993-4217"
    }
  },
  {
    "type": "Feature",
    "geometry": {
       "type": "Point",
       "coordinates":  [ 139.643675,35.73143017 ]
    },
    "properties": {
    "名称":"中村小学校",
    "所在地":"練馬区中村2-8-1",
    "電話":"03-3990-4241"
    }
  },
  {
    "type": "Feature",
    "geometry": {
       "type": "Point",
       "coordinates":  [ 139.634829,35.73421391 ]
    },
    "properties": {
    "名称":"中村西小学校",
    "所在地":"練馬区中村北4-17-1",
    "電話":"03-3990-4237"
    }
  },
  {
    "type": "Feature",
    "geometry": {
       "type": "Point",
       "coordinates":  [ 139.6666245,35.74288071 ]
    },
    "properties": {
    "名称":"開進第三小学校",
    "所在地":"練馬区桜台2-18-1",
    "電話":"03-3993-4263"
    }
  },
  {
    "type": "Feature",
    "geometry": {
       "type": "Point",
       "coordinates":  [ 139.6581551,35.74197859 ]
    },
    "properties": {
    "名称":"開進第二小学校",
    "所在地":"練馬区桜台5-10-5",
    "電話":"03-3993-2425"
    }
  },
  {
    "type": "Feature",
    "geometry": {
       "type": "Point",
       "coordinates":  [ 139.6527707,35.74089413 ]
    },
    "properties": {
    "名称":"南町小学校",
    "所在地":"練馬区練馬2-7-5",
    "電話":"03-3993-2438"
    }
  },
  {
    "type": "Feature",
    "geometry": {
       "type": "Point",
       "coordinates":  [ 139.6405327,35.74039886 ]
    },
    "properties": {
    "名称":"向山小学校",
    "所在地":"練馬区向山2-14-11",
    "電話":"03-3999-9145"
    }
  },
  {
    "type": "Feature",
    "geometry": {
       "type": "Point",
       "coordinates":  [ 139.6354345,35.73729053 ]
    },
    "properties": {
    "名称":"練馬第三小学校",
    "所在地":"練馬区貫井1-36-15",
    "電話":"03-3970-5641"
    }
  },
  {
    "type": "Feature",
    "geometry": {
       "type": "Point",
       "coordinates":  [ 139.6336661,35.74141098 ]
    },
    "properties": {
    "名称":"練馬第二小学校",
    "所在地":"練馬区貫井2-31-13",
    "電話":"03-3990-4247"
    }
  },
  {
    "type": "Feature",
    "geometry": {
       "type": "Point",
       "coordinates":  [ 139.6676761,35.75792902 ]
    },
    "properties": {
    "名称":"仲町小学校",
    "所在地":"練馬区氷川台2-18-24",
    "電話":"03-3932-5360"
    }
  },
  {
    "type": "Feature",
    "geometry": {
       "type": "Point",
       "coordinates":  [ 139.651002,35.75209195 ]
    },
    "properties": {
    "名称":"早宮小学校",
    "所在地":"練馬区早宮4-10-17",
    "電話":"03-3993-5165"
    }
  },
  {
    "type": "Feature",
    "geometry": {
       "type": "Point",
       "coordinates":  [ 139.6574017,35.75461393 ]
    },
    "properties": {
    "名称":"開進第一小学校",
    "所在地":"練馬区早宮2-1-31",
    "電話":"03-3932-3170"
    }
  },
  {
    "type": "Feature",
    "geometry": {
       "type": "Point",
       "coordinates":  [ 139.6473268,35.75219899 ]
    },
    "properties": {
    "名称":"練馬東小学校",
    "所在地":"練馬区春日町1-30-11",
    "電話":"03-3990-9142"
    }
  },
  {
    "type": "Feature",
    "geometry": {
       "type": "Point",
       "coordinates":  [ 139.6395234,35.7467741 ]
    },
    "properties": {
    "名称":"春日小学校",
    "所在地":"練馬区春日町5-12-1",
    "電話":"03-3926-7102"
    }
  },
  {
    "type": "Feature",
    "geometry": {
       "type": "Point",
       "coordinates":  [ 139.6359081,35.75245959 ]
    },
    "properties": {
    "名称":"練馬小学校",
    "所在地":"練馬区春日町6-11-36",
    "電話":"03-3990-4244"
    }
  },
  {
    "type": "Feature",
    "geometry": {
       "type": "Point",
       "coordinates":  [ 139.6266663,35.749728 ]
    },
    "properties": {
    "名称":"高松小学校",
    "所在地":"練馬区高松3-16-1",
    "電話":"03-3999-3376"
    }
  },
  {
    "type": "Feature",
    "geometry": {
       "type": "Point",
       "coordinates":  [ 139.6242042,35.7615858 ]
    },
    "properties": {
    "名称":"光が丘四季の香小学校",
    "所在地":"練馬区高松5-24-1",
    "電話":"03-3977-2711"
    }
  },
  {
    "type": "Feature",
    "geometry": {
       "type": "Point",
       "coordinates":  [ 139.6639688,35.76484648 ]
    },
    "properties": {
    "名称":"北町小学校",
    "所在地":"練馬区北町1-14-11",
    "電話":"03-3932-3296"
    }
  },
  {
    "type": "Feature",
    "geometry": {
       "type": "Point",
       "coordinates":  [ 139.653518,35.76161175 ]
    },
    "properties": {
    "名称":"北町西小学校",
    "所在地":"練馬区北町7-3-8",
    "電話":"03-3932-7234"
    }
  },
  {
    "type": "Feature",
    "geometry": {
       "type": "Point",
       "coordinates":  [ 139.6438079,35.76591317 ]
    },
    "properties": {
    "名称":"田柄小学校",
    "所在地":"練馬区田柄2-19-19",
    "電話":"03-3939-0351"
    }
  },
  {
    "type": "Feature",
    "geometry": {
       "type": "Point",
       "coordinates":  [ 139.6423281,35.75894613 ]
    },
    "properties": {
    "名称":"田柄第二小学校",
    "所在地":"練馬区田柄1-5-27",
    "電話":"03-3938-8826"
    }
  },
  {
    "type": "Feature",
    "geometry": {
       "type": "Point",
       "coordinates":  [ 139.6370008,35.76850429 ]
    },
    "properties": {
    "名称":"光が丘第八小学校",
    "所在地":"練馬区光が丘1-4-1",
    "電話":"03-5997-4828"
    }
  },
  {
    "type": "Feature",
    "geometry": {
       "type": "Point",
       "coordinates":  [ 139.6351062,35.76187602 ]
    },
    "properties": {
    "名称":"光が丘秋の陽小学校",
    "所在地":"練馬区光が丘2-1-1",
    "電話":"03-3976-6331"
    }
  },
  {
    "type": "Feature",
    "geometry": {
       "type": "Point",
       "coordinates":  [ 139.6309429,35.75736383 ]
    },
    "properties": {
    "名称":"光が丘夏の雲小学校",
    "所在地":"練馬区光が丘3-6-1",
    "電話":"03-5998-0501"
    }
  },
  {
    "type": "Feature",
    "geometry": {
       "type": "Point",
       "coordinates":  [ 139.6257307,35.75560109 ]
    },
    "properties": {
    "名称":"光が丘春の風小学校",
    "所在地":"練馬区光が丘7-2-1",
    "電話":"03-3976-5861"
    }
  },
  {
    "type": "Feature",
    "geometry": {
       "type": "Point",
       "coordinates":  [ 139.6274223,35.77262505 ]
    },
    "properties": {
    "名称":"旭町小学校",
    "所在地":"練馬区旭町2-29-1",
    "電話":"03-3939-0362"
    }
  },
  {
    "type": "Feature",
    "geometry": {
       "type": "Point",
       "coordinates":  [ 139.6152352,35.76304441 ]
    },
    "properties": {
    "名称":"豊溪小学校",
    "所在地":"練馬区土支田2-26-28",
    "電話":"03-3925-2444"
    }
  },
  {
    "type": "Feature",
    "geometry": {
       "type": "Point",
       "coordinates":  [ 139.6111826,35.76875646 ]
    },
    "properties": {
    "名称":"八坂小学校",
    "所在地":"練馬区土支田4-48-1",
    "電話":"03-3922-7625"
    }
  },
  {
    "type": "Feature",
    "geometry": {
       "type": "Point",
       "coordinates":  [ 139.6229813,35.74484426 ]
    },
    "properties": {
    "名称":"富士見台小学校",
    "所在地":"練馬区富士見台4-16-10",
    "電話":"03-3998-6351"
    }
  },
  {
    "type": "Feature",
    "geometry": {
       "type": "Point",
       "coordinates":  [ 139.6169989,35.73380199 ]
    },
    "properties": {
    "名称":"南が丘小学校",
    "所在地":"練馬区南田中2-13-1",
    "電話":"03-3904-1282"
    }
  },
  {
    "type": "Feature",
    "geometry": {
       "type": "Point",
       "coordinates":  [ 139.6195164,35.73746854 ]
    },
    "properties": {
    "名称":"石神井東小学校",
    "所在地":"練馬区南田中3-9-1",
    "電話":"03-3997-3312"
    }
  },
  {
    "type": "Feature",
    "geometry": {
       "type": "Point",
       "coordinates":  [ 139.6111617,35.73706564 ]
    },
    "properties": {
    "名称":"南田中小学校",
    "所在地":"練馬区南田中5-15-37",
    "電話":"03-3997-1145"
    }
  },
  {
    "type": "Feature",
    "geometry": {
       "type": "Point",
       "coordinates":  [ 139.6139348,35.75085036 ]
    },
    "properties": {
    "名称":"谷原小学校",
    "所在地":"練馬区谷原2-9-26",
    "電話":"03-3997-3271"
    }
  },
  {
    "type": "Feature",
    "geometry": {
       "type": "Point",
       "coordinates":  [ 139.6135632,35.75457806 ]
    },
    "properties": {
    "名称":"北原小学校",
    "所在地":"練馬区谷原4-9-1",
    "電話":"03-3904-5172"
    }
  },
  {
    "type": "Feature",
    "geometry": {
       "type": "Point",
       "coordinates":  [ 139.6012096,35.75425975 ]
    },
    "properties": {
    "名称":"泉新小学校",
    "所在地":"練馬区三原台3-18-30",
    "電話":"03-3925-4343"
    }
  },
  {
    "type": "Feature",
    "geometry": {
       "type": "Point",
       "coordinates":  [ 139.6070466,35.74644086 ]
    },
    "properties": {
    "名称":"光和小学校",
    "所在地":"練馬区石神井町2-16-34",
    "電話":"03-3997-3261"
    }
  },
  {
    "type": "Feature",
    "geometry": {
       "type": "Point",
       "coordinates":  [ 139.5988481,35.73543505 ]
    },
    "properties": {
    "名称":"石神井小学校",
    "所在地":"練馬区石神井台1-1-25",
    "電話":"03-3997-3277"
    }
  },
  {
    "type": "Feature",
    "geometry": {
       "type": "Point",
       "coordinates":  [ 139.5882954,35.7358474 ]
    },
    "properties": {
    "名称":"上石神井北小学校",
    "所在地":"練馬区石神井台5-1-32",
    "電話":"03-3920-1011"
    }
  },
  {
    "type": "Feature",
    "geometry": {
       "type": "Point",
       "coordinates":  [ 139.5809427,35.73517186 ]
    },
    "properties": {
    "名称":"石神井台小学校",
    "所在地":"練馬区石神井台8-6-33",
    "電話":"03-3928-7124"
    }
  },
  {
    "type": "Feature",
    "geometry": {
       "type": "Point",
       "coordinates":  [ 139.6053281,35.73165025 ]
    },
    "properties": {
    "名称":"下石神井小学校",
    "所在地":"練馬区下石神井2-20-18",
    "電話":"03-3997-5241"
    }
  },
  {
    "type": "Feature",
    "geometry": {
       "type": "Point",
       "coordinates":  [ 139.5907693,35.74890987 ]
    },
    "properties": {
    "名称":"大泉東小学校",
    "所在地":"練馬区東大泉1-22-1",
    "電話":"03-3922-1355"
    }
  },
  {
    "type": "Feature",
    "geometry": {
       "type": "Point",
       "coordinates":  [ 139.584309,35.75205413 ]
    },
    "properties": {
    "名称":"大泉小学校",
    "所在地":"練馬区東大泉4-25-1",
    "電話":"03-3924-0144"
    }
  },
  {
    "type": "Feature",
    "geometry": {
       "type": "Point",
       "coordinates":  [ 139.5809069,35.74482598 ]
    },
    "properties": {
    "名称":"大泉南小学校",
    "所在地":"練馬区東大泉6-28-1",
    "電話":"03-3922-1371"
    }
  },
  {
    "type": "Feature",
    "geometry": {
       "type": "Point",
       "coordinates":  [ 139.5735294,35.75537627 ]
    },
    "properties": {
    "名称":"大泉第四小学校",
    "所在地":"練馬区西大泉1-24-1",
    "電話":"03-3925-2478"
    }
  },
  {
    "type": "Feature",
    "geometry": {
       "type": "Point",
       "coordinates":  [ 139.5716003,35.76524024 ]
    },
    "properties": {
    "名称":"大泉西小学校",
    "所在地":"練馬区西大泉4-25-1",
    "電話":"03-3925-5832"
    }
  },
  {
    "type": "Feature",
    "geometry": {
       "type": "Point",
       "coordinates":  [ 139.5728874,35.74437381 ]
    },
    "properties": {
    "名称":"大泉第二小学校",
    "所在地":"練馬区南大泉4-29-11",
    "電話":"03-3924-2127"
    }
  },
  {
    "type": "Feature",
    "geometry": {
       "type": "Point",
       "coordinates":  [ 139.5710312,35.75120955 ]
    },
    "properties": {
    "名称":"大泉第六小学校",
    "所在地":"練馬区南大泉5-25-29",
    "電話":"03-3925-2471"
    }
  },
  {
    "type": "Feature",
    "geometry": {
       "type": "Point",
       "coordinates":  [ 139.6020733,35.75871034 ]
    },
    "properties": {
    "名称":"橋戸小学校",
    "所在地":"練馬区大泉町2-11-25",
    "電話":"03-3925-8620"
    }
  },
  {
    "type": "Feature",
    "geometry": {
       "type": "Point",
       "coordinates":  [ 139.5986127,35.76556414 ]
    },
    "properties": {
    "名称":"大泉第一小学校",
    "所在地":"練馬区大泉町3-16-23",
    "電話":"03-3925-2455"
    }
  },
  {
    "type": "Feature",
    "geometry": {
       "type": "Point",
       "coordinates":  [ 139.5955684,35.76216554 ]
    },
    "properties": {
    "名称":"大泉北小学校",
    "所在地":"練馬区大泉町4-28-22",
    "電話":"03-3925-5912"
    }
  },
  {
    "type": "Feature",
    "geometry": {
       "type": "Point",
       "coordinates":  [ 139.5796594,35.76338205 ]
    },
    "properties": {
    "名称":"大泉第三小学校",
    "所在地":"練馬区大泉学園町3-22-1",
    "電話":"03-3925-2466"
    }
  },
  {
    "type": "Feature",
    "geometry": {
       "type": "Point",
       "coordinates":  [ 139.593178,35.76566374 ]
    },
    "properties": {
    "名称":"大泉学園小学校",
    "所在地":"練馬区大泉学園町4-7-1",
    "電話":"03-3923-0006"
    }
  },
  {
    "type": "Feature",
    "geometry": {
       "type": "Point",
       "coordinates":  [ 139.5852395,35.76625928 ]
    },
    "properties": {
    "名称":"大泉学園緑小学校",
    "所在地":"練馬区大泉学園町5-11-47",
    "電話":"03-3925-7233"
    }
  },
  {
    "type": "Feature",
    "geometry": {
       "type": "Point",
       "coordinates":  [ 139.5916307,35.77735311 ]
    },
    "properties": {
    "名称":"大泉学園桜小学校",
    "所在地":"練馬区大泉学園町9-2-2",
    "電話":"03-3924-1126"
    }
  },
  {
    "type": "Feature",
    "geometry": {
       "type": "Point",
       "coordinates":  [ 139.5799725,35.72390577 ]
    },
    "properties": {
    "名称":"石神井西小学校",
    "所在地":"練馬区関町北1-1-5",
    "電話":"03-3920-0382"
    }
  },
  {
    "type": "Feature",
    "geometry": {
       "type": "Point",
       "coordinates":  [ 139.5719381,35.7250107 ]
    },
    "properties": {
    "名称":"関町小学校",
    "所在地":"練馬区関町北3-23-34",
    "電話":"03-3929-1290"
    }
  },
  {
    "type": "Feature",
    "geometry": {
       "type": "Point",
       "coordinates":  [ 139.573503,35.73212204 ]
    },
    "properties": {
    "名称":"関町北小学校",
    "所在地":"練馬区関町北5-13-40",
    "電話":"03-3920-1027"
    }
  },
  {
    "type": "Feature",
    "geometry": {
       "type": "Point",
       "coordinates":  [ 139.5806019,35.71817948 ]
    },
    "properties": {
    "名称":"立野小学校",
    "所在地":"練馬区立野町17-13",
    "電話":"03-3920-9101"
    }
  },
  {
    "type": "Feature",
    "geometry": {
       "type": "Point",
       "coordinates":  [ 139.5891117,35.72809095 ]
    },
    "properties": {
    "名称":"上石神井小学校",
    "所在地":"練馬区上石神井4-10-9",
    "電話":"03-3920-0805"
    }
  }
]
}